[
    {"title": "Bratislava Castle", "name" : "Bratislava", "position": {"lat":48.14816, "lng":17.10674}, "id":0},
    {"title": "Orava Castle", "name" : "Orava", "position": {"lat":49.262048, "lng":19.356824}, "id":1},
    {"title": "Spiš Castle", "name" : "Spis", "position": {"lat":48.9994743, "lng":20.765323}, "id":2},
    {"title": "Zvolen Castle", "name" : "Zvolen", "position": {"lat":48.5729772, "lng":19.1254983}, "id":3},
    {"title": "Nitra Castle", "name" : "Nitra", "position": {"lat":48.3183925, "lng":18.0846271}, "id":4},
    {"title": "Trenčín Castle","name" : "Trencin", "position": {"lat":48.8941282, "lng":18.0425604}, "id":5},
    {"title": "Bojnice Castle", "name" : "Bojnice", "position": {"lat":48.779914, "lng":18.5773394}, "id":6},
    {"title": "Červený Kameň Castle", "name" : "Cerveny Kamen", "position": {"lat":48.39182, "lng":17.3329437}, "id":7},
    {"title": "Krásna Hôrka Castle","name" : "Krasna Horka", "position": {"lat":48.6581363, "lng":20.5982546}, "id":8}
  ]